City,Lat,Lng,Max Temp,Humidity,Cloudiness,Wind Speed,Country,Date
Arraial do Cabo,-22.9661,-42.0278,76.91,85,0,25.64,BR,1612494174
Khatanga,71.9667,102.5,-30.86,78,0,9.26,RU,1612494274
Qaanaaq,77.484,-69.3632,-18.67,63,61,8.05,GL,1612494275
Matagami,49.7502,-77.6328,24.8,74,90,10.36,CA,1612494275
Kapaa,22.0752,-159.319,70.0,56,90,5.75,US,1612494063
Saint-Augustin,51.226,-58.6502,34.47,96,100,13.31,CA,1612494275
Aliaga,15.5167,120.8667,80.6,65,75,11.5,PH,1612494275
Punta Arenas,-53.15,-70.9167,48.2,61,75,11.5,CL,1612494275
Lebu,-37.6167,-73.65,60.6,79,0,3.47,CL,1612494275
Novovarshavka,54.1721,74.6946,14.29,97,100,7.25,RU,1612494275
Saint Paul Harbor,57.79,-152.4072,28.4,74,1,6.91,US,1612494126
Taksimo,56.3444,114.8794,-6.27,84,99,0.18,RU,1612494276
Comonfort,20.7167,-100.7667,64.4,25,1,2.3,MX,1612494276
Mattawa,46.7379,-119.9028,44.6,61,90,10.36,US,1612494276
Ust'-Kut,56.7938,105.7672,6.08,91,100,4.59,RU,1612494276
Klaksvík,62.2266,-6.589,33.8,64,20,10.36,FO,1612494131
Ostrovnoy,68.0531,39.5131,12.58,94,100,20.47,RU,1612494276
Te Anau,-45.4167,167.7167,75.0,37,48,2.62,NZ,1612494276
Avarua,-21.2078,-159.775,84.2,65,97,4.61,CK,1612494109
Paamiut,61.994,-49.6678,18.16,74,0,5.19,GL,1612494277
Busselton,-33.65,115.3333,69.01,37,1,5.01,AU,1612494024
Ugoofaaru,5.6667,73.0,81.54,70,99,7.45,MV,1612494287
Rikitea,-23.1203,-134.9692,78.84,68,100,11.54,PF,1612493993
Gisborne,-38.6533,178.0042,64.99,68,79,11.01,NZ,1612494287
Carnarvon,-24.8667,113.6333,82.4,72,75,19.57,AU,1612494287
Severo-Kuril'sk,50.6789,156.125,12.99,85,73,10.04,RU,1612494287
Bluff,-46.6,168.3333,58.35,73,100,11.74,NZ,1612494288
Albany,42.6001,-73.9662,26.01,82,0,1.01,US,1612493845
Thompson,55.7435,-97.8558,-9.4,70,90,9.22,CA,1612494117
Maragogi,-9.0122,-35.2225,77.86,83,19,9.08,BR,1612494071
Hermanus,-34.4187,19.2345,64.0,92,25,1.99,ZA,1612494059
Doha,25.2867,51.5333,66.2,94,0,1.14,QA,1612494301
Price,39.5994,-110.8107,26.6,54,1,9.22,US,1612494311
Port Elizabeth,-33.918,25.5701,62.6,94,0,1.14,ZA,1612494070
Hithadhoo,-0.6,73.0833,82.45,76,100,11.54,MV,1612494316
Kendari,-3.945,122.4989,85.5,71,99,1.3,ID,1612493751
Macia,-25.0269,33.0989,75.09,97,100,4.03,MZ,1612494318
Belaya Gora,68.5333,146.4167,-17.25,87,86,10.0,RU,1612494318
Tiksi,71.6872,128.8694,-17.84,89,100,7.38,RU,1612493995
Moroto,2.5345,34.6666,66.97,50,57,3.2,UG,1612494319
Tuktoyaktuk,69.4541,-133.0374,-32.8,75,40,9.22,CA,1612494016
Kahului,20.8947,-156.47,71.6,68,90,11.5,US,1612493961
Hay River,60.8156,-115.7999,-23.8,76,69,8.05,CA,1612494300
Partizanskoye,55.5006,94.39,9.32,93,99,11.43,RU,1612494323
Omboué,-1.5746,9.2618,77.99,87,99,4.0,GA,1612494323
Kamenka,51.3223,42.7678,39.0,98,100,13.42,RU,1612494207
Touros,-5.1989,-35.4608,78.8,78,20,6.91,BR,1612493740
Marathon,44.9,-89.7668,21.2,79,90,20.71,US,1612494330
Mossamedes,-15.1961,12.1522,70.05,76,78,8.01,AO,1612494331
Bengkulu,-3.8004,102.2655,84.67,62,18,3.27,ID,1612494332
Butaritari,3.0707,172.7902,80.53,83,96,13.56,KI,1612494085
Jamestown,42.097,-79.2353,37.0,40,75,5.75,US,1612494064
Korla,41.7597,86.1469,29.12,76,30,5.03,CN,1612494335
Saskylakh,71.9167,114.0833,-34.56,79,64,1.88,RU,1612494160
Kiryat Gat,31.61,34.7642,55.99,100,100,7.43,IL,1612494338
Hobart,-42.8794,147.3294,81.0,73,75,13.8,AU,1612493930
Deputatsky,69.3,139.9,-25.64,87,88,3.47,RU,1612494241
Quelimane,-17.8786,36.8883,80.6,94,40,3.44,MZ,1612494340
Santa Luzia,-19.7697,-43.8514,73.4,83,75,6.91,BR,1612494139
Bredasdorp,-34.5322,20.0403,62.6,88,4,2.3,ZA,1612494342
Ilulissat,69.2167,-51.1,3.2,39,40,23.02,GL,1612494077
Mataura,-46.1927,168.8643,75.52,39,99,2.26,NZ,1612494019
Methóni,36.8197,21.7049,51.01,100,2,4.61,GR,1612494343
New Norfolk,-42.7826,147.0587,80.01,64,100,4.79,AU,1612494344
Balyqshy,47.0667,51.8667,28.4,100,75,6.96,KZ,1612494345
Virginia Beach,36.8529,-75.978,43.0,45,95,1.99,US,1612494155
Lensk,60.7253,114.9278,-12.03,86,83,1.74,RU,1612494348
Rørvik,64.8621,11.2373,25.32,90,0,7.61,NO,1612494348
Flinders,-34.5833,150.8552,84.0,69,78,7.0,AU,1612494349
Ponta do Sol,32.6667,-17.1,50.0,68,91,10.0,PT,1612494352
Port Macquarie,-31.4333,152.9167,84.99,56,2,1.99,AU,1612494354
Bonthe,7.5264,-12.505,77.13,87,1,6.33,SL,1612494355
Bethel,41.3712,-73.414,28.0,86,1,2.33,US,1612494279
Vaini,-21.2,-175.2,80.6,89,75,5.75,TO,1612494053
Hofn,64.2539,-15.2082,36.19,79,100,14.38,IS,1612494359
Port Alfred,-33.5906,26.891,66.99,89,57,9.55,ZA,1612494113
Saint-Philippe,-21.3585,55.7679,80.6,69,90,5.75,RE,1612494101
Talcahuano,-36.7167,-73.1167,59.0,94,90,9.22,CL,1612494361
Khani,41.9563,42.9566,46.4,81,90,8.05,GE,1612494362
Ancud,-41.8697,-73.8203,68.0,49,0,6.91,CL,1612494364
Koslan,63.4564,48.8989,9.19,95,100,5.59,RU,1612494368
Lagoa,39.05,-27.9833,54.16,70,51,20.62,PT,1612494189
Provideniya,64.3833,-173.3,-4.58,89,100,27.04,RU,1612494228
Saint George,37.1041,-113.5841,48.2,25,1,12.66,US,1612493723
Hamilton,39.1834,-84.5333,37.0,93,90,12.66,US,1612494270
Chui,-33.6971,-53.4616,65.64,77,89,13.22,UY,1612494167
Puerto Varas,-41.3195,-72.9854,62.6,72,0,6.91,CL,1612494371
Canby,45.2629,-122.6926,45.0,93,90,5.75,US,1612494372
Pskov,57.8136,28.3496,10.4,85,99,8.95,RU,1612494133
Pevek,69.7008,170.3133,-15.27,80,75,2.66,RU,1612494121
Namatanai,-3.6667,152.4333,85.44,69,45,5.88,PG,1612494373
Warmbad,-28.45,18.7333,70.56,32,0,6.31,NA,1612494374
Alice,27.7523,-98.0697,71.6,88,1,4.61,US,1612494374
Pitimbu,-7.4706,-34.8086,78.8,83,20,5.75,BR,1612494374
Fort Nelson,58.8053,-122.7002,-14.8,76,90,2.3,CA,1612494375
Atherton,53.5237,-2.4935,45.0,87,94,1.01,GB,1612494376
Samaná,19.2056,-69.3369,73.6,87,2,7.56,DO,1612494376
Mayo,38.8876,-76.5119,39.0,81,1,9.22,US,1612494240
Yerbogachën,61.2767,108.0108,-19.39,86,80,0.94,RU,1612494143
Isahaya,32.8411,130.0431,48.2,71,75,6.91,JP,1612494146
Hilo,19.7297,-155.09,71.6,73,40,16.11,US,1612493853
Souillac,-20.5167,57.5167,75.2,83,20,2.3,MU,1612494379
Toamasina,-18.1667,49.3833,75.2,94,40,3.44,MG,1612494381
Comodoro Rivadavia,-45.8667,-67.5,73.4,56,0,3.44,AR,1612494281
Port Blair,11.6667,92.75,82.17,72,12,13.24,IN,1612494195
Mabaruma,8.2,-59.7833,73.24,88,15,3.85,GY,1612494383
São Filipe,14.8961,-24.4956,71.71,74,100,10.47,CV,1612494384
Parabel',58.6978,81.4825,-1.23,93,95,5.59,RU,1612494385
Atuona,-9.8,-139.0333,78.91,72,3,10.74,PF,1612493992
Saldanha,-33.0117,17.9442,60.8,82,0,5.75,ZA,1612494387
Hambantota,6.1241,81.1185,71.6,94,40,3.44,LK,1612494389
Torbay,47.6666,-52.7314,39.2,100,90,8.05,CA,1612494194
Half Moon Bay,37.4636,-122.4286,53.6,53,1,9.22,US,1612494390
Nioro,13.35,-15.75,68.14,39,77,5.17,GM,1612494390
Fort Frances,48.5999,-93.4003,3.99,72,90,12.66,CA,1612494391
Olafsvik,64.8945,-23.7142,38.14,81,100,35.37,IS,1612494391
Bilma,18.6853,12.9164,59.32,33,0,7.94,NE,1612494393
Cabo San Lucas,22.8909,-109.9124,73.4,46,20,9.33,MX,1612494395
Kajaani,64.2273,27.7285,-9.4,84,20,2.3,FI,1612494398
Vitim,59.4511,112.5578,-7.49,87,100,0.74,RU,1612494398
Narsaq,60.9167,-46.05,15.8,38,28,3.44,GL,1612494200
Hammerfest,70.6634,23.6821,28.4,86,75,8.05,NO,1612494400
Ushuaia,-54.8,-68.3,44.6,81,40,34.52,AR,1612493704
Vestmanna,62.1564,-7.1664,33.8,64,20,10.36,FO,1612494402
Vestmannaeyjar,63.4427,-20.2734,39.63,73,100,31.0,IS,1612494402
Mar del Plata,-38.0023,-57.5575,64.0,77,75,9.22,AR,1612493777
Sangar,63.9242,127.4739,-36.29,80,32,4.99,RU,1612494230
Hoi An,15.8794,108.335,75.2,73,75,5.75,VN,1612494405
Aksarka,66.5606,67.7975,-23.15,87,64,5.41,RU,1612494407
Mount Isa,-20.7333,139.5,95.0,41,40,14.97,AU,1612494407
Airai,-8.9266,125.4092,65.86,100,100,4.14,TL,1612494408
Wichita Falls,33.9137,-98.4934,46.99,45,1,6.91,US,1612494294
Abū Zabad,12.35,29.25,62.76,30,36,18.75,SD,1612494409
Gerāsh,27.6652,54.1371,39.2,48,0,3.6,IR,1612494409
Zamora,-4.0692,-78.9567,69.01,74,100,1.25,EC,1612494409
Naryan-Mar,67.6713,53.087,-15.83,87,93,14.03,RU,1612494409
Xining,36.6167,101.7667,26.35,57,0,3.31,CN,1612494410
Prince Rupert,54.3161,-130.3201,39.2,100,90,5.75,CA,1612494410
Cape Town,-33.9258,18.4232,66.99,88,0,11.5,ZA,1612494023
Yeppoon,-23.1333,150.7333,89.6,35,40,8.05,AU,1612494412
Shache,38.4167,77.2406,32.18,78,0,4.74,CN,1612494405
Tiznit Province,29.5833,-9.5,51.46,65,91,7.43,MA,1612494416
Kununurra,-15.7667,128.7333,91.4,70,40,6.91,AU,1612494416
Kumul,42.8,93.45,33.69,77,0,3.04,CN,1612494292
Nikolskoye,59.7035,30.7861,8.01,85,20,8.95,RU,1612494015
Tanete,-3.9443,119.7848,90.41,51,91,8.16,ID,1612494423
De-Kastri,51.4667,140.7833,-5.26,80,100,5.53,RU,1612494426
Jablah,35.3614,35.9256,56.59,70,33,7.18,SY,1612494426
Ahipara,-35.1667,173.1667,69.01,68,100,6.64,NZ,1612494431
Lüderitz,-26.6481,15.1594,65.98,64,0,17.29,NA,1612494432
North Bend,43.4065,-124.2243,44.6,93,1,8.05,US,1612494434
Zyryanka,65.75,150.85,-9.83,89,100,21.99,RU,1612494435
Rio Grande,-32.035,-52.0986,66.2,88,0,11.5,BR,1612494339
George Town,5.4112,100.3354,84.2,65,20,3.44,MY,1612493921
Mahébourg,-20.4081,57.7,75.2,83,20,2.3,MU,1612494390
Creel,27.75,-107.6333,42.75,64,40,8.32,MX,1612494449
Yulara,-25.2406,130.9889,69.8,60,90,14.97,AU,1612494451
Yarmouth,41.7057,-70.2286,32.0,74,1,3.44,US,1612494455
Ambilobe,-13.2,49.05,73.83,92,43,2.06,MG,1612494457
Barrow,71.2906,-156.7887,-23.8,62,90,10.36,US,1612494462
Harper,4.375,-7.7169,78.33,90,69,7.07,LR,1612494204
Vangaindrano,-23.35,47.6,75.42,93,32,4.43,MG,1612494467
Margate,51.3813,1.3862,46.0,89,10,1.99,GB,1612494470
Krutinka,56.0055,71.5113,18.91,97,100,12.24,RU,1612494470
Alofi,-19.0595,-169.9187,82.4,78,90,8.05,NU,1612494471
Codrington,-38.2667,141.9667,69.51,40,34,8.21,AU,1612494471
Kaitangata,-46.2817,169.8464,60.01,71,69,15.99,NZ,1612494472
Bubaque,11.2833,-15.8333,77.14,69,73,17.11,GW,1612494108
Wałbrzych,50.7714,16.2843,34.0,89,100,2.48,PL,1612494472
Buchanan,5.8808,-10.0467,78.76,89,29,6.42,LR,1612494472
San Quintín,30.4833,-115.95,56.86,77,67,11.72,MX,1612494435
Bang Saphan,11.2126,99.5117,82.4,83,97,4.61,TH,1612494473
Tasiilaq,65.6145,-37.6368,26.6,80,75,11.5,GL,1612494473
Lompoc,34.6391,-120.4579,51.8,82,1,4.61,US,1612494135
Haines Junction,60.7522,-137.5108,-18.4,69,21,1.81,CA,1612494140
Dunedin,-45.8742,170.5036,55.99,70,57,25.99,NZ,1612494474
Chālūs,36.655,51.4204,46.4,100,90,2.3,IR,1612494445
Brae,60.3964,-1.353,37.4,56,90,17.27,GB,1612494474
Ust'-Koksa,50.2696,85.6108,23.4,93,100,1.95,RU,1612494475
Zadar,44.1197,15.2422,51.8,93,75,4.61,HR,1612494477
Dongsheng,39.8161,109.9776,32.49,76,0,27.29,CN,1612494479
Padang,-0.9492,100.3543,87.8,62,20,2.3,ID,1612494091
Chokurdakh,70.6333,147.9167,-15.05,86,97,20.4,RU,1612494479
Egvekinot,66.3167,-179.1667,-19.97,91,100,16.37,RU,1612494464
Segezha,63.7415,34.3222,5.0,92,100,15.21,RU,1612494486
Khanpur,28.6453,70.6567,56.86,44,0,3.18,PK,1612494487
Nizhniy Kuranakh,58.8353,125.4869,-15.95,82,0,1.5,RU,1612494488
Vardø,70.3705,31.1107,27.86,90,100,19.37,NO,1612494489
Kudahuvadhoo,2.6708,72.8944,81.97,72,100,18.57,MV,1612494022
Vostok,46.4856,135.8833,-1.79,84,2,5.17,RU,1612494489
Longyearbyen,78.2186,15.6401,19.4,68,75,12.66,SJ,1612494264
Nagua,19.3832,-69.8474,72.43,88,14,6.44,DO,1612494490
Yar-Sale,66.8333,70.8333,-22.27,87,2,5.75,RU,1612494490
Alyangula,-13.8483,136.4192,86.0,79,90,9.22,AU,1612494490
Inuvik,68.3499,-133.7218,-40.0,67,100,2.3,CA,1612494490
Granville,-33.8333,151.0167,88.0,61,40,29.93,AU,1612494491
Saint-Pierre,-21.3393,55.4781,80.6,69,90,5.75,RE,1612494472
Cranbrook,49.4999,-115.7688,32.0,69,40,11.5,CA,1612494491
Santander,43.4647,-3.8044,51.01,93,90,1.14,ES,1612494492
Sitka,57.0531,-135.33,37.4,81,20,14.97,US,1612494087
Upernavik,72.7868,-56.1549,-4.81,71,97,7.2,GL,1612494052
Yellowknife,62.456,-114.3525,-31.0,75,1,8.05,CA,1612493821
Dikson,73.5069,80.5464,-10.88,90,100,10.49,RU,1612494491
Anchorage,61.2181,-149.9003,15.8,73,75,4.61,US,1612494210
Łęczyca,52.0596,19.1997,26.6,74,0,4.61,PL,1612494255
Leningradskiy,69.3833,178.4167,-26.93,85,100,10.98,RU,1612494452
Minnedosa,50.2453,-99.8436,1.4,78,90,19.57,CA,1612494492
Neuquén,-38.9516,-68.0591,75.2,57,0,2.3,AR,1612494493
Bambous Virieux,-20.3428,57.7575,79.0,83,20,2.3,MU,1612494191
Nanortalik,60.1432,-45.2371,21.27,78,100,8.86,GL,1612494409
Lavrentiya,65.5833,-171.0,-7.6,89,100,17.92,RU,1612494088
Anloga,5.7947,0.8973,84.2,84,40,10.36,GH,1612494493
Ashquelon,31.6693,34.5715,55.99,100,100,10.78,IL,1612494260
Alta Floresta,-9.8756,-56.0861,72.73,96,93,2.73,BR,1612494493
Kandrian,-6.2167,149.55,81.05,82,99,8.12,PG,1612494493
Shingū,33.7333,135.9833,50.0,43,40,6.91,JP,1612494488
Durango,24.8333,-104.8333,58.93,31,3,8.77,MX,1612494458
Gold Coast,-28.0,153.4333,84.99,57,40,13.8,AU,1612494335
Wewak,-3.5534,143.6268,85.59,68,14,8.25,PG,1612494495
Aykhal,66.0,111.5,-33.68,80,14,5.19,RU,1612494258
Bagan,54.1001,77.6646,7.86,92,98,6.71,RU,1612494495
Honiara,-9.4333,159.95,84.76,70,11,8.1,SB,1612494496
Norman Wells,65.282,-126.8329,-41.8,66,40,6.91,CA,1612494095
Narva-Jõesuu,59.4589,28.0408,14.68,94,100,11.03,EE,1612494496
East London,-33.0153,27.9116,68.0,94,75,2.3,ZA,1612494496
Muscatine,41.4667,-91.1335,17.6,79,20,28.77,US,1612494393
Tongchuanshi,35.0806,109.0897,48.09,41,0,7.67,CN,1612494496
Zliten,32.4674,14.5687,61.29,46,69,11.74,LY,1612494496
Hirara,24.8,125.2833,73.4,49,20,11.5,JP,1612494496
Ola,59.5833,151.2833,-0.02,85,96,16.53,RU,1612494427
Ellensburg,46.9965,-120.5479,41.0,90,84,2.71,US,1612494497
Meulaboh,4.1363,96.1285,83.48,65,29,2.53,ID,1612494259
Şebinkarahisar,40.2883,38.4236,31.15,97,49,2.1,TR,1612494252
Maniitsoq,65.4167,-52.9,13.64,72,100,4.43,GL,1612494219
Pedro II,-4.4247,-41.4586,70.03,92,67,2.42,BR,1612494497
Puerto Ayora,-0.7393,-90.3518,77.0,94,16,1.99,EC,1612494497
Diu,20.7141,70.9822,68.5,37,23,3.18,IN,1612494446
Avdon,54.6667,55.7167,33.8,100,90,13.42,RU,1612494497
Calama,-22.4667,-68.9333,59.0,25,0,4.61,CL,1612494247
Lorengau,-2.0226,147.2712,77.5,84,100,9.04,PG,1612494071
Katsuura,35.1333,140.3,46.4,42,40,4.61,JP,1612494114
Kostivere,59.427,25.0962,15.01,85,90,8.05,EE,1612494498
Chilca,-12.5211,-76.7372,73.0,83,20,12.66,PE,1612494499
Phatthalung,7.5,100.0833,87.01,69,20,3.44,TH,1612494499
Nizwá,22.9333,57.5333,52.72,71,0,1.07,OM,1612494499
Tautira,-17.7333,-149.15,82.0,65,31,1.99,PF,1612494499
Castro,-24.7911,-50.0119,63.61,92,1,5.59,BR,1612494099
Mayumba,-3.432,10.6554,79.21,85,100,5.73,GA,1612494356
Westport,41.1415,-73.3579,35.01,80,1,3.44,US,1612494392
Narrabri,-30.3167,149.7833,93.99,31,0,14.97,AU,1612494500
Bandarbeyla,9.4942,50.8122,70.3,70,10,9.66,SO,1612494500
Jizan,17.3333,42.6667,71.6,73,0,9.22,SA,1612494500
Grindavik,63.8424,-22.4338,37.4,87,75,25.32,IS,1612494460
Vila Velha,-20.3297,-40.2925,79.0,78,40,8.05,BR,1612494471
Aklavik,68.2191,-135.0107,-40.0,67,99,2.3,CA,1612494318
Galle,6.0367,80.217,77.65,81,47,6.33,LK,1612494500
Okha,53.5739,142.9478,-9.29,89,100,23.09,RU,1612494501
Soe,-9.8607,124.284,75.52,78,93,10.47,ID,1612494501
Valdosta,30.8327,-83.2785,53.6,58,1,8.05,US,1612494299
Gigmoto,13.7796,124.39,79.21,84,92,14.92,PH,1612494501
Jinchang,38.4953,102.1739,39.22,45,0,5.53,CN,1612494501
Bundaberg,-24.85,152.35,88.0,39,1,12.66,AU,1612494501
Ribeira Grande,38.5167,-28.7,55.62,67,43,18.68,PT,1612494501
Anadyr,64.75,177.4833,5.0,78,40,33.55,RU,1612494337
Kruisfontein,-34.0033,24.7314,61.0,95,0,3.29,ZA,1612494476
Turukhansk,65.8167,87.9833,-26.1,86,100,3.56,RU,1612494502
Nanning,22.8167,108.3167,64.4,82,40,6.71,CN,1612494302
Jacobina,-11.1806,-40.5183,71.94,80,92,3.94,BR,1612494502
Talnakh,69.4865,88.3972,-22.7,86,100,0.85,RU,1612494199
Mount Gambier,-37.8333,140.7667,64.4,55,40,14.97,AU,1612494395
Laas,46.6166,10.7002,39.99,86,0,3.44,IT,1612494393
Port Pirie,-33.1833,138.0167,73.4,43,90,26.46,AU,1612494503
Lauria,40.0465,15.8358,46.0,96,100,1.81,IT,1612494503
Rehoboth,-23.3167,17.0833,71.28,31,0,6.71,NA,1612494503
Morros,-9.4467,-46.3003,73.58,87,99,0.72,BR,1612494503
Lakselv,70.0513,24.9718,26.6,80,90,12.66,NO,1612494503
Cap Malheureux,-19.9842,57.6142,79.0,76,2,1.99,MU,1612494503
Sibolga,1.7427,98.7792,84.61,63,100,1.07,ID,1612494503
Hutang,31.5333,119.4833,43.0,99,98,1.01,CN,1612494504
Palu,-0.8917,119.8707,88.39,52,75,4.03,ID,1612494504
Constitución,-35.3333,-72.4167,59.95,90,88,3.13,CL,1612494454
Nouakchott,18.0858,-15.9785,64.4,88,0,14.97,MR,1612494504
Aldan,58.6031,125.3894,-16.29,82,2,2.17,RU,1612494504
Murashi,59.3999,48.9615,9.72,96,100,2.48,RU,1612494504
Muisne,0.6,-80.0333,76.35,90,99,5.53,EC,1612494504
Dingle,10.9995,122.6711,82.74,79,88,15.95,PH,1612494504
Camacupa,-12.0167,17.4833,62.96,94,90,0.87,AO,1612494504
Bourail,-21.5667,165.4833,82.58,75,40,8.14,NC,1612494504
Puri,19.8,85.85,68.0,68,0,6.73,IN,1612494505
Cherskiy,68.75,161.3,-5.8,77,98,8.05,RU,1612494081
Cidreira,-30.1811,-50.2056,68.0,79,19,15.37,BR,1612494367
Broome,42.2506,-75.833,30.2,59,1,4.61,US,1612494470
Sembabule,-0.0772,31.4567,66.76,84,99,1.7,UG,1612494505
Salalah,17.0151,54.0924,69.8,73,40,4.61,OM,1612494505
Tuatapere,-46.1333,167.6833,65.88,56,87,7.18,NZ,1612494130
Vanimo,-2.6741,141.3028,84.33,73,36,6.82,PG,1612494505
Assiut,27.181,31.1837,46.4,76,0,9.22,EG,1612494505
Beni,0.5,29.4667,65.14,81,96,2.37,CD,1612494505
Ixtapa,20.7,-105.2,70.0,94,1,2.44,MX,1612494496
Sørland,67.667,12.6934,37.13,77,100,18.61,NO,1612494506
Waipawa,-41.4122,175.5153,59.0,77,75,17.27,NZ,1612494506
Cockburn Town,21.4612,-71.1419,74.52,70,0,15.61,TC,1612494360
Dawei,14.0833,98.2,88.2,33,21,2.44,MM,1612494506
Carauari,-4.8828,-66.8958,75.29,95,100,1.88,BR,1612494506
College,64.8569,-147.8028,-20.99,68,40,2.04,US,1612494335
Vicksburg,32.3526,-90.8779,62.6,94,75,13.8,US,1612494253
Caluquembe,-13.7833,14.6833,59.74,69,46,3.11,AO,1612494251
Kysyl-Syr,63.8986,122.7617,-34.78,79,0,4.41,RU,1612493994
Tezu,27.9167,96.1667,74.39,19,0,1.72,IN,1612494506
Gladstone,-23.85,151.25,84.2,51,34,13.8,AU,1612494477
Piedras Negras,28.7,-100.5167,72.0,35,0,13.0,MX,1612494507
Baruun-Urt,46.6806,113.2792,11.48,93,19,9.42,MN,1612494507
Koygorodok,60.445,50.9968,13.69,96,100,4.07,RU,1612494507
Carballo,43.213,-8.691,46.99,97,67,1.45,ES,1612494507
Isangel,-19.55,169.2667,69.8,100,75,3.44,VU,1612494213
Vung Tau,10.346,107.0843,79.12,66,1,5.35,VN,1612494507
Launceston,-41.45,147.1667,73.4,68,75,19.57,AU,1612494256
St. Pete Beach,27.7253,-82.7412,53.6,71,1,3.44,US,1612494507
Krasnosel'kup,65.7,82.4667,-27.11,86,15,6.02,RU,1612494507
Tongliao,43.6125,122.2653,25.72,93,33,8.55,CN,1612494508
Nome,64.5011,-165.4064,10.0,72,90,17.27,US,1612494298
Kapuskasing,49.4169,-82.4331,32.0,64,99,9.22,CA,1612494331
Cumana,10.4635,-64.1775,76.98,80,91,13.67,VE,1612494307
Buala,-8.145,159.5921,86.23,67,0,8.57,SB,1612494508
Sayyan,15.1718,44.3244,40.39,64,0,2.8,YE,1612494508
Faya,18.3851,42.4509,59.0,51,0,8.05,SA,1612494508
Manggar,-2.8833,108.2667,85.03,69,97,11.59,ID,1612494508
Morant Bay,17.8815,-76.4093,78.8,73,75,6.91,JM,1612494508
Cururupu,-1.8283,-44.8683,76.21,88,58,4.25,BR,1612494508
Richards Bay,-28.783,32.0377,73.58,89,89,8.1,ZA,1612494509
Natchez,31.5604,-91.4032,64.4,82,75,8.05,US,1612494509
Esperance,-33.8667,121.9,62.6,55,90,12.66,AU,1612494248
Khorol,49.7837,33.2783,23.94,95,99,20.69,UA,1612494509
Coelho Neto,-4.2567,-43.0128,76.01,83,100,4.03,BR,1612494509
Faanui,-16.4833,-151.75,82.04,65,12,5.61,PF,1612494510
Ulcinj,41.9294,19.2244,46.4,100,20,3.44,ME,1612494510
Bouna,9.2667,-3.0,74.8,21,32,3.06,CI,1612494510
Esim,4.8699,-2.2405,79.09,88,0,7.31,GH,1612494510
Puerto Rondón,6.2805,-71.1,82.29,56,79,5.08,CO,1612494510
Sakakah,29.9697,40.2064,51.8,93,75,8.05,SA,1612494510
Mandera,3.9366,41.867,69.69,82,0,6.73,KE,1612494510
Sarkand,45.41,79.9186,31.12,79,99,2.66,KZ,1612494238
Gemeente Wageningen,51.9667,5.6667,43.0,93,90,5.75,NL,1612494511
Guérande,47.3291,-2.4283,48.0,100,75,5.75,FR,1612494511
Mokolo,10.7398,13.8019,62.73,29,7,7.07,CM,1612494511
Abu Dhabi,24.4667,54.3667,60.8,94,90,1.14,AE,1612494509
Marzuq,14.4,46.4667,53.91,60,0,3.22,YE,1612494511
Kalmar,56.6616,16.3616,15.01,85,1,9.22,SE,1612494511
Luorong,24.4058,109.6086,74.55,37,0,7.23,CN,1612494511
Marawi,7.9986,124.2928,82.0,80,68,7.0,PH,1612494186
Dauphin,51.1494,-100.0502,5.0,72,90,9.22,CA,1612494222
Benjamin Constant,-4.3831,-70.0311,75.2,100,40,1.5,BR,1612494512
Impfondo,1.6381,18.0667,71.47,84,88,2.08,CG,1612494512
Bud,39.447,-86.1758,32.0,90,100,21.18,US,1612494040
Madimba,-10.4,40.3333,78.31,82,51,2.64,TZ,1612494512
Tambo,-14.8,-73.9167,37.35,100,100,1.52,PE,1612494512
Ponta Delgada,37.7333,-25.6667,53.6,71,40,9.22,PT,1612494376
Vila Franca do Campo,37.7167,-25.4333,53.6,71,40,9.22,PT,1612494334
Grand-Santi,4.25,-54.3833,70.74,93,98,2.82,GF,1612494512
Tilichiki,60.4667,166.1,-4.25,93,98,15.32,RU,1612494512
Kamina,-8.7386,24.9906,64.04,89,100,3.22,CD,1612494513
Nuuk,64.1835,-51.7216,14.0,57,20,10.36,GL,1612494513
Kibaya,-5.3,36.5667,57.02,100,42,2.01,TZ,1612494513
Arman',59.7,150.1667,-1.35,82,87,13.6,RU,1612494180
Poum,-20.2333,164.0167,80.42,81,8,13.24,NC,1612494057
San Felipe,10.3399,-68.7425,73.02,90,99,3.47,VE,1612494513
Baft,29.234,56.6057,35.87,62,0,2.08,IR,1612494513
Colac,-38.3333,143.5833,66.0,90,76,3.65,AU,1612494495
Yabēlo,4.8833,38.0833,52.92,52,0,6.71,ET,1612494376
Suntar,62.1444,117.6319,-25.6,85,54,3.58,RU,1612494514
Muzhi,65.3667,64.6667,-11.79,90,100,7.54,RU,1612494514
Ust-Kuyga,70.0167,135.6,-23.98,83,17,6.85,RU,1612494514
Champerico,14.3,-91.9167,64.99,95,11,5.48,GT,1612494514
Praia,14.9215,-23.5087,69.8,73,75,13.8,CV,1612494515
Raudeberg,61.9875,5.1352,26.6,54,4,21.85,NO,1612494515
Petropavlovsk-Kamchatskiy,53.0452,158.6483,15.8,38,20,4.47,RU,1612494475
São João da Barra,-21.6403,-41.0511,77.11,82,0,20.33,BR,1612494311
Bairiki Village,1.3292,172.9752,86.0,70,40,9.22,KI,1612494515
Natal,-5.795,-35.2094,78.8,78,0,5.75,BR,1612494446
Aitape,-3.1374,142.3475,86.05,65,16,7.92,PG,1612494515
Coquimbo,-29.9533,-71.3436,60.8,82,90,6.91,CL,1612494515
Sabang,5.8933,95.3214,81.39,76,49,25.59,ID,1612494515
Itaguaí,-22.8522,-43.7753,84.2,61,40,9.22,BR,1612494417
Pisco,-13.7,-76.2167,72.0,78,0,11.5,PE,1612494516
Saint-François,46.4154,3.9054,45.0,100,100,2.3,FR,1612494516
Fortuna,40.5982,-124.1573,48.0,93,1,5.08,US,1612494516
Miraflores,19.2167,-98.8083,68.0,30,1,6.91,MX,1612494516
Tonj,7.2737,28.6822,73.58,21,0,6.55,SS,1612494516
Bodaybo,57.8506,114.1933,0.9,87,100,1.41,RU,1612494516
Batī,11.1833,40.0167,49.73,46,12,1.88,ET,1612494516
Tura,25.5198,90.2201,71.76,43,0,1.1,IN,1612494516
Khovd,48.0056,91.6419,20.3,78,96,5.23,MN,1612494403
Zhigansk,66.7697,123.3711,-39.77,76,0,11.83,RU,1612494517
Batagay,67.6333,134.6333,-35.18,80,100,1.48,RU,1612494517
Severnyy,50.677,36.5532,32.0,100,90,15.66,RU,1612494517
Kirakira,-10.4544,161.9205,84.74,72,78,8.46,SB,1612494517
Vänersborg,58.3807,12.3234,19.4,85,75,8.05,SE,1612494517
Huarmey,-10.0681,-78.1522,70.02,77,91,4.56,PE,1612494517
Muyezerskiy,63.9333,31.65,2.86,92,100,11.99,RU,1612494517
Matara,5.9485,80.5353,78.3,78,22,3.31,LK,1612494517
Geraldton,-28.7667,114.6,78.8,31,100,25.32,AU,1612494236
Andenes,69.3143,16.1194,35.6,69,100,26.46,NO,1612494518
Bollnäs,61.3482,16.3946,8.01,87,27,1.01,SE,1612494518
Hong Kong,22.2855,114.1577,69.01,69,46,3.0,HK,1612494252
Zheleznodorozhnyy,55.7503,38.0042,17.6,86,75,15.66,RU,1612494043
Orvault,47.271,-1.6219,46.4,100,90,5.75,FR,1612494518
Roald,62.5833,6.1333,23.0,63,12,9.22,NO,1612494518
Bone,51.9669,12.1396,37.99,97,100,3.0,DE,1612494518
Maceió,-9.6658,-35.7353,75.2,94,0,3.44,BR,1612494519
Scarborough,54.2797,-0.4044,42.01,95,100,5.01,GB,1612494473
Kuytun,54.3419,101.5036,7.39,93,99,11.3,RU,1612494519
Balbalan,17.4414,121.2019,68.68,74,82,4.16,PH,1612494519
Quatre Cocos,-20.2078,57.7625,79.0,83,20,2.3,MU,1612494519
Fukuechō,32.6881,128.8419,51.8,58,75,1.14,JP,1612494519
Puerto Suárez,-18.95,-57.8,75.88,81,99,4.79,BO,1612494519
Voss,60.623,6.4229,18.0,86,0,5.48,NO,1612494519
Dubbo,-32.25,148.6167,86.0,39,75,19.57,AU,1612494519
Nosy Varika,-20.5833,48.5333,75.92,89,89,3.31,MG,1612494520
Valday,57.9747,33.2525,4.62,95,100,7.16,RU,1612494520
Tataouine,32.9297,10.4518,55.4,41,0,2.3,TN,1612494520
Port-Gentil,-0.7193,8.7815,81.45,80,96,6.8,GA,1612494250
Powell River,49.8496,-124.5361,41.0,93,90,5.75,CA,1612494520
Byron Bay,-28.65,153.6167,82.4,65,40,9.22,AU,1612494387
Honningsvåg,70.9821,25.9704,30.61,90,100,17.13,NO,1612494520
Cayenne,4.9333,-52.3333,78.8,83,75,5.75,GF,1612494151
Sandhausen,49.3428,8.6592,44.01,94,100,2.75,DE,1612494521
Udachny,66.4167,112.4,-37.17,78,11,3.65,RU,1612494521
Moose Factory,51.2585,-80.6094,33.8,64,90,10.36,CA,1612494373
Bay Roberts,47.5999,-53.2648,39.2,100,90,8.05,CA,1612494263
Necochea,-38.5473,-58.7368,57.6,81,0,3.89,AR,1612494285
Bogorodskoye,56.55,37.8833,6.31,95,100,8.25,RU,1612494277
Taoudenni,22.6783,-3.9836,66.87,21,11,6.06,ML,1612494354
Seoul,37.5683,126.9778,35.6,69,75,8.05,KR,1612494012
Caesarea,32.5189,34.9046,57.2,94,75,5.75,IL,1612494522
Wanaka,-44.7,169.15,75.18,43,61,4.18,NZ,1612494332
Aripuanã,-9.1667,-60.6333,75.15,95,94,0.65,BR,1612494522
Manokwari,-0.8667,134.0833,82.29,74,100,6.17,ID,1612494521
Jambusar,22.05,72.8,57.2,88,0,6.91,IN,1612494522
Zhigalovo,54.8097,105.1578,9.75,91,100,8.12,RU,1612494522
Viedma,-40.8135,-62.9967,71.01,45,0,13.11,AR,1612494509
Buraidah,26.326,43.975,64.4,45,40,11.5,SA,1612494511
Berlevåg,70.8578,29.0864,27.46,91,100,15.17,NO,1612494190
Oktyabr'skoye,43.0645,44.7417,32.0,86,71,4.47,RU,1612494523
Ternovka,51.678,41.6375,36.9,99,100,8.88,RU,1612494523
Tavares,28.8042,-81.7256,54.0,66,1,4.7,US,1612494523
Moranbah,-22.0016,148.0466,90.27,43,41,8.48,AU,1612494523
Nokaneng,-19.6667,22.2667,69.08,92,99,5.03,BW,1612494523
Mazagão,-0.115,-51.2894,77.0,100,75,4.61,BR,1612494523
Saint Anthony,45.0205,-93.218,12.2,67,90,16.11,US,1612494366
Moree,-29.4667,149.85,93.2,26,0,13.8,AU,1612494523
Batticaloa,7.7102,81.6924,78.03,81,99,10.18,LK,1612494524
Nālūt,30.3333,10.85,53.91,43,0,12.24,LY,1612494375
Belmonte,-15.8631,-38.8828,77.0,83,20,6.91,BR,1612494518
Tiarei,-17.5333,-149.3333,82.0,65,12,1.99,PF,1612494524
La Ronge,55.1001,-105.2842,-0.4,78,100,9.22,CA,1612494514
Port Hardy,50.6996,-127.4199,44.6,100,90,8.05,CA,1612494524
Chabahar,25.2919,60.643,64.89,62,0,1.61,IR,1612494524
Ambulu,-8.345,113.6058,85.28,66,7,3.36,ID,1612494525
Carnduff,49.1667,-101.8009,-4.0,82,93,5.99,CA,1612494525
Torrijos,39.9819,-4.2835,55.0,70,100,6.02,ES,1612494525
Stornoway,58.2093,-6.3865,35.6,93,90,26.46,GB,1612494133
De Aar,-30.6497,24.0123,68.65,75,0,5.77,ZA,1612494240
Tarakan,3.3,117.6333,84.2,79,20,6.91,ID,1612494525
Ilhéus,-14.7889,-39.0494,75.38,90,52,5.08,BR,1612494525
Kropotkin,45.4375,40.5756,48.52,86,100,16.04,RU,1612494526
Turmalina,-17.2856,-42.73,67.53,93,82,0.31,BR,1612494526
Turan,16.0678,108.2208,75.2,73,75,5.75,VN,1612494318
Kailua,21.4022,-157.7394,71.6,56,40,11.5,US,1612494285
Menomonie,44.8755,-91.9193,17.6,67,90,24.16,US,1612494526
Contamana,-7.3333,-75.0167,73.78,97,100,2.3,PE,1612494287
Luancheng,37.8792,114.6517,46.4,23,100,4.47,CN,1612494312
Santa Rosa,14.3122,121.1114,86.0,65,75,5.75,PH,1612494526
Sola,-13.8833,167.55,78.67,85,100,10.31,VU,1612494071
Shimoda,34.6667,138.95,50.0,57,75,5.75,JP,1612494527
Port-Cartier,50.0334,-66.8654,30.2,80,90,3.44,CA,1612494527
Mackay,-21.15,149.2,86.0,66,50,14.97,AU,1612494267
Ngunguru,-35.6167,174.5,75.99,65,100,7.0,NZ,1612494527
Ingleside,27.8778,-97.2117,68.0,88,1,9.22,US,1612494527
Vaitape,-16.5167,-151.75,82.06,65,11,5.73,PF,1612494411
Ghanzi,-21.5667,21.7833,67.89,92,98,8.03,BW,1612494527
Hasaki,35.7333,140.8333,50.0,34,20,5.75,JP,1612494492
Laguna,38.421,-121.4238,52.0,50,1,3.44,US,1612494527
Charter Township of Clinton,42.587,-82.9199,33.01,100,90,23.02,US,1612494527
Port Hedland,-20.3167,118.5667,85.6,67,42,11.48,AU,1612494500
Thinadhoo,0.5333,72.9333,82.4,77,100,13.53,MV,1612494528
Khandagayty,50.7333,92.05,7.59,91,100,1.68,RU,1612494528
Celestún,20.8667,-90.4,71.58,65,0,7.96,MX,1612494528
Tynne,50.6015,26.1849,24.01,82,16,5.01,UA,1612494528
Aksu,41.1231,80.2644,27.55,77,57,0.58,CN,1612494528
Shubarkuduk,49.1447,56.4872,32.5,95,98,7.58,KZ,1612494528
Coos Bay,43.3665,-124.2179,44.6,93,1,8.05,US,1612494528
Rawson,-43.3002,-65.1023,84.85,20,0,24.11,AR,1612494225
Porto Torres,40.835,8.3972,44.6,100,0,2.3,IT,1612494529
Baishishan,43.5833,127.5667,23.95,91,54,8.14,CN,1612494270
Amapá,1.0,-52.0,70.61,98,100,2.01,BR,1612494529
Karratha,-20.7377,116.8463,85.35,69,25,14.32,AU,1612494319
San Patricio,28.017,-97.5169,71.6,88,20,11.5,US,1612494490
Ngama,11.7833,17.1667,68.38,23,17,14.65,TD,1612494529
Ialibu,-6.2821,143.9935,63.43,92,93,3.65,PG,1612494529
Acapulco de Juárez,16.8634,-99.8901,78.8,78,75,3.44,MX,1612494509
Tromsø,69.6496,18.957,30.2,86,75,13.8,NO,1612494502
Modāsa,23.4667,73.3,65.75,32,0,11.83,IN,1612494530
Fare,-16.7,-151.0167,82.15,64,0,6.85,PF,1612494530
Belyy Yar,53.6039,91.3903,6.8,92,100,2.24,RU,1612494530
Shamary,57.3434,58.2199,33.55,97,100,4.09,RU,1612494530
Augusto Corrêa,-1.0217,-46.635,77.25,90,80,3.83,BR,1612494530
Sovetskiy,61.3614,63.5842,5.0,95,98,4.68,RU,1612494530
Tutóia,-2.7619,-42.2744,79.99,76,24,12.88,BR,1612494530
Paragominas,-2.9667,-47.4833,72.46,98,60,2.51,BR,1612494530
Agirish,61.9247,63.0231,4.95,95,100,4.21,RU,1612494531
Władysławowo,54.7909,18.4009,19.0,92,20,3.44,PL,1612494531
Makkah al Mukarramah,21.4267,39.8261,68.31,50,74,12.91,SA,1612494531
Solnechnyy,50.7214,136.6319,-8.55,83,71,5.12,RU,1612494531
San Ramon,37.7799,-121.978,52.0,57,1,5.75,US,1612494427
Benghazi,32.1167,20.0667,59.25,74,3,3.33,LY,1612494531
Neiafu,-18.65,-173.9833,80.6,94,75,8.05,TO,1612494531
Bathsheba,13.2167,-59.5167,78.8,65,40,18.41,BB,1612494531
Caravelas,-17.7125,-39.2481,77.0,83,0,8.01,BR,1612494532
Kokopo,-4.352,152.2633,83.35,75,40,6.64,PG,1612494532
Dekar,-21.5333,21.9333,67.69,94,100,6.64,BW,1612494532
Yei,4.095,30.6779,74.55,31,64,0.98,SS,1612494532
Kismayo,-0.3582,42.5454,75.33,86,3,10.67,SO,1612494532
Thornhill,55.2333,-3.7667,42.8,87,75,13.8,GB,1612494532
Tyukhtet,56.5389,89.3011,3.79,94,96,6.87,RU,1612494533
Cedar City,37.6775,-113.0619,24.8,63,1,8.05,US,1612494533
Ploemeur,47.7333,-3.4333,48.2,93,90,5.75,FR,1612494533
Coyhaique,-45.5752,-72.0662,64.4,52,0,3.44,CL,1612494502
Lazurne,46.084,32.5295,35.6,87,90,20.13,UA,1612494533
Upington,-28.4478,21.2561,68.0,40,0,8.37,ZA,1612494533
Lerwick,60.1545,-1.1494,37.4,56,90,17.27,GB,1612494533
Jacareacanga,-6.2222,-57.7528,75.81,88,51,0.83,BR,1612494519
Voh,-20.9667,164.7,82.18,79,23,8.59,NC,1612494533
Chopinzinho,-25.8558,-52.5233,60.22,98,7,4.99,BR,1612494534
Hervey Bay,-25.2986,152.8535,86.0,56,55,5.01,AU,1612494333
Badou,7.5833,0.6,74.95,77,9,1.23,TG,1612494534
Menongue,-14.6585,17.691,61.03,81,16,3.4,AO,1612494534
Eyl,7.9803,49.8164,67.6,80,7,12.41,SO,1612494534
Bowen,-20.0167,148.2333,87.8,62,75,13.8,AU,1612494534
Pagudpud,18.5616,120.7868,78.8,65,20,8.05,PH,1612494534
Balikpapan,-1.2675,116.8289,84.2,84,20,2.3,ID,1612494534
Marang,5.2056,103.2059,78.8,83,40,3.44,MY,1612494534
Karpathos,35.507,27.2132,59.0,82,0,11.5,GR,1612494535
St Austell,50.3383,-4.7658,44.01,93,20,6.91,GB,1612494334
Kashgar,39.4547,75.9797,28.4,54,0,11.18,CN,1612494535
Nabire,-3.3667,135.4833,82.53,80,100,4.0,ID,1612494535
Srednekolymsk,67.45,153.6833,-6.02,84,92,15.57,RU,1612494535
Wattegama,6.7989,81.4808,71.6,94,40,3.44,LK,1612494535
Outlook,51.5001,-107.0513,1.4,78,100,6.91,CA,1612494344
Jahāzpur,25.6167,75.2833,57.15,68,0,5.88,IN,1612494535
Tegul'det,57.3064,88.1667,2.75,94,94,6.17,RU,1612494535
High Level,58.5169,-117.136,-18.4,76,20,5.75,CA,1612494493
Sabha,27.0377,14.4283,51.96,44,0,7.83,LY,1612494536
Kiruna,67.8557,20.2251,23.0,100,90,8.05,SE,1612494536
Kavieng,-2.5744,150.7967,83.5,73,89,1.68,PG,1612494469
Labuhan,-6.8844,112.2051,82.58,80,88,18.14,ID,1612494536
Giohar,2.7809,45.5005,70.41,93,16,8.46,SO,1612494536
Lata,40.1629,-8.3327,50.0,90,100,3.83,PT,1612494426
Qinzhou,21.95,108.6167,69.67,67,62,8.03,CN,1612494536
Iqaluit,63.7506,-68.5145,12.2,85,90,9.22,CA,1612494536
Kyshtovka,56.555,76.6271,7.59,94,100,6.38,RU,1612494536
Guerrero Negro,27.9769,-114.0611,60.44,71,100,15.7,MX,1612494105
Yangi Marg`ilon,40.4272,71.7189,32.0,64,1,6.91,UZ,1612494411
Kulhudhuffushi,6.6221,73.07,81.18,73,99,6.17,MV,1612494537
Funadhoo,6.15,73.2667,81.61,71,100,6.73,MV,1612494537
Karauli,26.5,77.0167,55.58,81,29,5.99,IN,1612494369
Sīrjān,29.452,55.6814,44.08,51,0,6.55,IR,1612494538
Bida,9.0833,6.0167,74.5,19,0,4.97,NG,1612494538
Adrar,20.5022,-10.0711,66.11,24,42,5.79,MR,1612494350
Ojinaga,29.5667,-104.4167,64.4,29,1,0.54,MX,1612494489
Nemuro,43.3236,145.575,17.6,53,40,10.36,JP,1612494500
Zuénoula,7.4292,-6.0431,76.64,78,0,6.15,CI,1612494539
Rock Springs,41.5875,-109.2029,19.4,68,1,26.46,US,1612494420
Newberg,45.3001,-122.9732,45.0,93,90,5.75,US,1612494364
Ust'-Ishim,57.6935,71.1665,12.92,96,100,7.31,RU,1612494540
Mapiripán,2.8892,-72.1256,76.35,87,100,3.11,CO,1612494540
Rotifunk,8.2333,-12.6833,71.8,93,20,1.99,SL,1612494540
Pacific Grove,36.6177,-121.9166,54.0,81,1,4.61,US,1612494364
Karpogory,64.0019,44.4451,4.19,93,100,9.84,RU,1612494541
